{
  "Nation": [
    { "id": 1, "name": "시/도를 선택해주세요" }
  ],
  "Gangwon-do": [
    { "id": 1, "name": "강릉시", "latitude": 37.7510, "longtitude": 128.8764 },
    { "id": 2, "name": "고성군", "latitude": 38.3803, "longtitude": 128.4675 },
    { "id": 3, "name": "동해시", "latitude": 37.5209, "longtitude": 129.1230 },
    { "id": 4, "name": "삼척시", "latitude": 37.4442, "longtitude": 129.1657 },
    { "id": 5, "name": "속초시", "latitude": 38.2049, "longtitude": 128.5644 },
    { "id": 6, "name": "양구군", "latitude": 38.1059, "longtitude": 127.9894 },
    { "id": 7, "name": "양양군", "latitude": 38.1061, "longtitude": 128.6281 },
    { "id": 8, "name": "영월군", "latitude": 37.1849, "longtitude": 128.4655 },
    { "id": 9, "name": "원주시", "latitude": 38.0701, "longtitude": 128.1710 },
    { "id": 10, "name": "인제군", "latitude": 38.0701, "longtitude": 128.1710 },
    { "id": 11, "name": "정선군", "latitude": 37.3791, "longtitude": 128.8183 },
    { "id": 12, "name": "철원군", "latitude": 38.2153, "longtitude": 127.2563 },
    { "id": 13, "name": "춘천시", "latitude": 37.8816, "longtitude": 127.7291 },
    { "id": 14, "name": "태백시", "latitude": 37.1598, "longtitude": 128.9850 },
    { "id": 15, "name": "평창군", "latitude": 37.3703, "longtitude": 128.3924},
    { "id": 16, "name": "홍천군", "latitude": 37.6911, "longtitude": 127.8787 },
    { "id": 17, "name": "화천군", "latitude": 38.1052, "longtitude": 127.7067 },
    { "id": 18, "name": "횡성군", "latitude": 37.4887, "longtitude": 127.9846 }
  ],
  "Gyeonggi-do": [
    { "id": 1, "name": "가평군", "latitude": 37.8316, "longitude": 127.5095 },
    { "id": 2, "name": "고양시>덕양구", "latitude": 37.6521, "longitude": 126.8356 },
    { "id": 3, "name": "고양시>일산동구", "latitude": 37.6847, "longitude": 126.7704 },
    { "id": 4, "name": "고양시>일산서구", "latitude": 37.6788, "longitude": 126.7352 },
    { "id": 5, "name": "과천시", "latitude": 37.4292, "longitude": 127.0156 },
    { "id": 6, "name": "광명시", "latitude": 37.4788, "longitude": 126.8646 },
    { "id": 7, "name": "광주시", "latitude": 37.4275, "longitude": 127.2579 },
    { "id": 8, "name": "구리시", "latitude": 37.5949, "longitude": 127.1290 },
    { "id": 9, "name": "군포시", "latitude": 37.3616, "longitude": 126.9337 },
    { "id": 10, "name": "김포시", "latitude": 37.6151, "longitude": 126.7156 },
    { "id": 11, "name": "남양주시", "latitude": 37.6365, "longitude": 127.2165 },
    { "id": 12, "name": "동두천시", "latitude": 37.8990, "longitude": 127.0546 },
    { "id": 13, "name": "부천시>소사구", "latitude": 37.5043, "longitude": 126.7844 },
    { "id": 14, "name": "부천시>오정구", "latitude": 37.5037, "longitude": 126.7647 },
    { "id": 15, "name": "부천시>원미구", "latitude": 37.5058, "longitude": 126.7745 },
    { "id": 16, "name": "부천시>분당구", "latitude": 37.5044, "longitude": 126.7686 },
    { "id": 17, "name": "부천시>수정구", "latitude": 37.5047, "longitude": 126.7729 },
    { "id": 18, "name": "부천시>중원구", "latitude": 37.5043, "longitude": 126.7643 },
    { "id": 19, "name": "부천시>권선구", "latitude": 37.5052, "longitude": 126.7656 },
    { "id": 20, "name": "부천시>영통구", "latitude": 37.5034, "longitude": 126.8000 },
    { "id": 21, "name": "부천시>장안구", "latitude": 37.5038, "longitude": 126.7742 },
    { "id": 22, "name": "부천시>팔달구", "latitude": 37.5064, "longitude": 126.7853 },
    { "id": 23, "name": "시흥시", "latitude": 37.3809, "longitude": 126.8028 },
    { "id": 24, "name": "안산시>단원구", "latitude": 37.3271, "longitude": 126.8289 },
    { "id": 25, "name": "안산시>상록구", "latitude": 37.3109, "longitude": 126.8581 },
    { "id": 26, "name": "안성시", "latitude": 37.0117, "longitude": 127.2793 },
    { "id": 27, "name": "안양시", "latitude": 37.3943, "longitude": 126.9578 },
    { "id": 28, "name": "안양시>동안구", "latitude": 37.3922, "longitude": 126.9590 },
    { "id": 29, "name": "안양시>만안구", "latitude": 37.3930, "longitude": 126.9172 },
    { "id": 30, "name": "양주시", "latitude": 37.7856, "longitude": 127.0442 },
    { "id": 31, "name": "양평군", "latitude": 37.4915, "longitude": 127.4875 },
    { "id": 32, "name": "여주시", "latitude": 37.2985, "longitude": 127.6371 },
    { "id": 33, "name": "연천군", "latitude": 38.0969, "longitude": 127.0742 },
    { "id": 34, "name": "오산시", "latitude": 37.1496, "longitude": 127.0708 },
    { "id": 35, "name": "용인시>기흥구", "latitude": 37.2347, "longitude": 127.1167 },
    { "id": 36, "name": "용인시>수지구", "latitude": 37.3221, "longitude": 127.0957 },
    { "id": 37, "name": "용인시>처인구", "latitude": 37.2347, "longitude": 127.1167 },
    { "id": 38, "name": "의왕시", "latitude": 37.3459, "longitude": 126.9673 },
    { "id": 39, "name": "의정부시", "latitude": 37.7380, "longitude": 127.0473 },
    { "id": 40, "name": "이천시", "latitude": 37.2720, "longitude": 127.4358 },
    { "id": 41, "name": "파주시", "latitude": 37.7599, "longitude": 126.7750 },
    { "id": 42, "name": "이천시", "latitude": 37.2720, "longitude": 127.4358 },
    { "id": 43, "name": "파주시", "latitude": 37.7599, "longitude": 126.7750 },
    { "id": 44, "name": "평택시", "latitude": 36.9919, "longitude": 127.1126 },
    { "id": 45, "name": "포천시", "latitude": 37.8949, "longitude": 127.2009 },
    { "id": 46, "name": "하남시", "latitude": 37.5392, "longitude": 127.2169 },
    { "id": 47, "name": "화성시", "latitude": 37.1995, "longitude": 126.8312 }
  ],
  "South Gyeongsang Province": [
    { "id": 1, "name": "거제시", "latitude": 34.8886, "longitude": 128.6212 },
    { "id": 2, "name": "거창군", "latitude": 35.6864, "longitude": 127.9180 },
    { "id": 3, "name": "고성군", "latitude": 34.9771, "longitude": 128.3150 },
    { "id": 5, "name": "김해시", "latitude": 35.2282, "longitude": 128.8812 },
    { "id": 6, "name": "남해군", "latitude": 34.8401, "longitude": 127.8946 },
    { "id": 7, "name": "밀양시", "latitude": 35.4910, "longitude": 128.7430 },
    { "id": 8, "name": "사천시", "latitude": 35.0780, "longitude": 128.0510 },
    { "id": 9, "name": "산청군", "latitude": 35.4131, "longitude": 127.8740 },
    { "id": 10, "name": "양산시", "latitude": 35.3383, "longitude": 129.0307 },
    { "id": 11, "name": "의령군", "latitude": 35.3224, "longitude": 128.2875 },
    { "id": 12, "name": "진주시", "latitude": 35.1796, "longitude": 128.1076 },
    { "id": 13, "name": "창녕군", "latitude": 35.5412, "longitude": 128.4941 },
    { "id": 14, "name": "창원시>마산합포구", "latitude": 35.2035, "longitude": 128.5743 },
    { "id": 15, "name": "창원시>마산회원구", "latitude": 35.1978, "longitude": 128.5903 },
    { "id": 16, "name": "창원시>성산구", "latitude": 35.2288, "longitude": 128.6403 },
    { "id": 17, "name": "창원시>의창구", "latitude": 35.2421, "longitude": 128.6767 },
    { "id": 18, "name": "창원시>진해구", "latitude": 35.1553, "longitude": 128.7051 },
    { "id": 19, "name": "통영시", "latitude": 34.8556, "longitude": 128.4297 },
    { "id": 20, "name": "하동군", "latitude": 35.0653, "longitude": 127.8875 },
    { "id": 21, "name": "함안군", "latitude": 35.2728, "longitude": 128.4131 },
    { "id": 22, "name": "함양군", "latitude": 35.5205, "longitude": 127.7400 },
    { "id": 23, "name": "합천군", "latitude": 35.5681, "longitude": 128.1626 }
  ],
  "North Gyeongsang Province": [
    { "id": 1, "name": "경산시", "latitude": 35.8231, "longitude": 128.7376 },
    { "id": 2, "name": "경주시", "latitude": 35.8424, "longitude": 129.2117 },
    { "id": 3, "name": "고령군", "latitude": 35.7251, "longitude": 128.2501 },
    { "id": 4, "name": "구미시", "latitude": 36.1238, "longitude": 128.3447 },
    { "id": 5, "name": "군위군", "latitude": 36.2412, "longitude": 128.5652 },
    { "id": 6, "name": "김천시", "latitude": 36.1316, "longitude": 128.1152 },
    { "id": 7, "name": "문경시", "latitude": 36.5840, "longitude": 128.1893 },
    { "id": 8, "name": "봉화군", "latitude": 36.8879, "longitude": 128.7361 },
    { "id": 9, "name": "상주시", "latitude": 36.4107, "longitude": 128.1595 },
    { "id": 10, "name": "성주군", "latitude": 35.9156, "longitude": 128.2683 },
    { "id": 11, "name": "안동시", "latitude": 36.5648, "longitude": 128.7190 },
    { "id": 12, "name": "영덕군", "latitude": 36.4165, "longitude": 129.3826 },
    { "id": 13, "name": "영양군", "latitude": 36.6555, "longitude": 129.1133 },
    { "id": 14, "name": "영주시", "latitude": 36.8254, "longitude": 128.6254 },
    { "id": 15, "name": "영천시", "latitude": 35.9639, "longitude": 128.9465 },
    { "id": 16, "name": "예천군", "latitude": 36.6471, "longitude": 128.4524 },
    { "id": 17, "name": "울릉군", "latitude": 37.4854, "longitude": 130.8974 },
    { "id": 18, "name": "의성군", "latitude": 36.3554, "longitude": 128.7089 },
    { "id": 19, "name": "청도군", "latitude": 35.6461, "longitude": 128.7412 },
    { "id": 20, "name": "청송군", "latitude": 36.4346, "longitude": 129.0402 },
    { "id": 21, "name": "칠곡군", "latitude": 35.9878, "longitude": 128.4240 },
    { "id": 22, "name": "포항시>남구", "latitude": 35.9884, "longitude": 129.3706 },
    { "id": 23, "name": "포항시>북구", "latitude": 36.1098, "longitude": 129.4069 }
  ],  
  "Gwangju": [
    { "id": 1, "name": "광산구", "latitude": 35.1260, "longitude": 126.8784 },
    { "id": 2, "name": "남구", "latitude": 35.1416, "longitude": 126.8904 },
    { "id": 3, "name": "동구", "latitude": 35.1595, "longitude": 126.9170 },
    { "id": 4, "name": "북구", "latitude": 35.2139, "longitude": 126.8531 },
    { "id": 5, "name": "서구", "latitude": 35.1526, "longitude": 126.8592 }
  ],
  "Daegu": [
    { "id": 1, "name": "남구", "latitude": 35.8401, "longitude": 128.5667 },
    { "id": 2, "name": "달서구", "latitude": 35.8319, "longitude": 128.5437 },
    { "id": 3, "name": "달성군", "latitude": 35.8025, "longitude": 128.4791 },
    { "id": 4, "name": "동구", "latitude": 35.8762, "longitude": 128.6060 },
    { "id": 5, "name": "북구", "latitude": 35.8921, "longitude": 128.5865 },
    { "id": 6, "name": "서구", "latitude": 35.8714, "longitude": 128.5566 },
    { "id": 7, "name": "수성구", "latitude": 35.8310, "longitude": 128.6361 },
    { "id": 8, "name": "중구", "latitude": 35.8692, "longitude": 128.5979 }
  ],
  "Deajeon": [
    { "id": 1, "name": "대덕구", "latitude": 36.3510, "longitude": 127.4344 },
    { "id": 2, "name": "동구", "latitude": 36.3266, "longitude": 127.4324 },
    { "id": 3, "name": "서구", "latitude": 36.3408, "longitude": 127.3746 },
    { "id": 4, "name": "유성구", "latitude": 36.3685, "longitude": 127.3547 },
    { "id": 5, "name": "중구", "latitude": 36.3268, "longitude": 127.4252 }
  ],  
  "Busan": [
    { "id": 1, "name": "강서구", "latitude": 35.1044, "longitude": 128.9359 },
    { "id": 2, "name": "금정구", "latitude": 35.2578, "longitude": 129.0893 },
    { "id": 3, "name": "기장군", "latitude": 35.2446, "longitude": 129.2200 },
    { "id": 4, "name": "남구", "latitude": 35.1365, "longitude": 129.0820 },
    { "id": 5, "name": "동구", "latitude": 35.1299, "longitude": 129.0472 },
    { "id": 6, "name": "동래구", "latitude": 35.2146, "longitude": 129.0812 },
    { "id": 7, "name": "부산진구", "latitude": 35.1631, "longitude": 129.0519 },
    { "id": 8, "name": "북구", "latitude": 35.1985, "longitude": 129.0197 },
    { "id": 9, "name": "사상구", "latitude": 35.1594, "longitude": 128.9907 },
    { "id": 10, "name": "사하구", "latitude": 35.1066, "longitude": 128.9667 },
    { "id": 11, "name": "서구", "latitude": 35.1175, "longitude": 129.0221 },
    { "id": 12, "name": "수영구", "latitude": 35.1561, "longitude": 129.1112 },
    { "id": 13, "name": "연제구", "latitude": 35.1751, "longitude": 129.0820 },
    { "id": 14, "name": "영도구", "latitude": 35.0912, "longitude": 129.0657 },
    { "id": 15, "name": "중구", "latitude": 35.1062, "longitude": 129.0302 },
    { "id": 16, "name": "해운대구", "latitude": 35.1635, "longitude": 129.1608 }
  ],
  "Seoul": [
    { "id": 1, "name": "강남구", "latitude": 37.5172, "longitude": 127.0473 },
    { "id": 2, "name": "강동구", "latitude": 37.5300, "longitude": 127.1237 },
    { "id": 3, "name": "강북구", "latitude": 37.6396, "longitude": 127.0257 },
    { "id": 4, "name": "강서구", "latitude": 37.5658, "longitude": 126.8225 },
    { "id": 5, "name": "관악구", "latitude": 37.4784, "longitude": 126.9516 },
    { "id": 6, "name": "광진구", "latitude": 37.5485, "longitude": 127.0865 },
    { "id": 7, "name": "구로구", "latitude": 37.4954, "longitude": 126.8581 },
    { "id": 8, "name": "금천구", "latitude": 37.4565, "longitude": 126.8954 },
    { "id": 9, "name": "노원구", "latitude": 37.6552, "longitude": 127.0776 },
    { "id": 10, "name": "도봉구", "latitude": 37.6688, "longitude": 127.0471 },
    { "id": 11, "name": "동대문구", "latitude": 37.5744, "longitude": 127.0396 },
    { "id": 12, "name": "동작구", "latitude": 37.5121, "longitude": 126.9396 },
    { "id": 13, "name": "마포구", "latitude": 37.5663, "longitude": 126.9016 },
    { "id": 14, "name": "서대문구", "latitude": 37.5791, "longitude": 126.9368 },
    { "id": 15, "name": "서초구", "latitude": 37.4837, "longitude": 127.0324 },
    { "id": 16, "name": "성동구", "latitude": 37.5635, "longitude": 127.0365 },
    { "id": 17, "name": "성북구", "latitude": 37.6065, "longitude": 127.0276 },
    { "id": 18, "name": "송파구", "latitude": 37.5145, "longitude": 127.1060 },
    { "id": 19, "name": "양천구", "latitude": 37.5171, "longitude": 126.8663 },
    { "id": 20, "name": "영등포구", "latitude": 37.5265, "longitude": 126.8963 },
    { "id": 21, "name": "용산구", "latitude": 37.5320, "longitude": 126.9900 },
    { "id": 22, "name": "은평구", "latitude": 37.6175, "longitude": 126.9228 },
    { "id": 23, "name": "종로구", "latitude": 37.5728, "longitude": 126.9794 },
    { "id": 24, "name": "중구", "latitude": 37.5641, "longitude": 126.9977 },
    { "id": 25, "name": "중랑구", "latitude": 37.5953, "longitude": 127.0930 }
  ],
  "Sejong": [
    { "id": 1, "name": "세종시", "latitude": 36.4808, "longitude": 127.2886 }
  ],
  "Ulsan": [
      { "id": 1, "name": "남구", "latitude": 35.5398, "longitude": 129.3169 },
      { "id": 2, "name": "동구", "latitude": 35.5228, "longitude": 129.4245 },
      { "id": 3, "name": "북구", "latitude": 35.6127, "longitude": 129.3808 },
      { "id": 4, "name": "울주군", "latitude": 35.5467, "longitude": 129.1354 },
      { "id": 5, "name": "중구", "latitude": 35.5625, "longitude": 129.3340 }
  ],
  "Incheon": [
    { "id": 1, "name": "강화군", "latitude": 37.7448, "longitude": 126.5006 },
    { "id": 2, "name": "계양구", "latitude": 37.5439, "longitude": 126.7317 },
    { "id": 3, "name": "남동구", "latitude": 37.4019, "longitude": 126.7261 },
    { "id": 4, "name": "동구", "latitude": 37.4835, "longitude": 126.6423 },
    { "id": 5, "name": "미추홀구", "latitude": 37.4565, "longitude": 126.6545 },
    { "id": 6, "name": "부평구", "latitude": 37.5088, "longitude": 126.7210 },
    { "id": 7, "name": "서구", "latitude": 37.5465, "longitude": 126.6760 },
    { "id": 8, "name": "연수구", "latitude": 37.4172, "longitude": 126.6784 },
    { "id": 9, "name": "옹진군", "latitude": 37.4606, "longitude": 126.4653 },
    { "id": 10, "name": "중구", "latitude": 37.4761, "longitude": 126.6278 }
  ],
  "Jeollanam-do": [
    { "id": 1, "name": "강진군", "latitude": 34.6407, "longitude": 126.7723 },
    { "id": 2, "name": "고흥군", "latitude": 34.6112, "longitude": 127.2793 },
    { "id": 3, "name": "곡성군", "latitude": 35.2033, "longitude": 127.2892 },
    { "id": 4, "name": "광양시", "latitude": 34.9437, "longitude": 127.6880 },
    { "id": 5, "name": "구례군", "latitude": 35.2053, "longitude": 127.4642 },
    { "id": 6, "name": "나주시", "latitude": 35.0102, "longitude": 126.7197 },
    { "id": 7, "name": "담양군", "latitude": 35.3139, "longitude": 126.9910 },
    { "id": 8, "name": "목포시", "latitude": 34.8127, "longitude": 126.3922 },
    { "id": 9, "name": "무안군", "latitude": 34.9938, "longitude": 126.4780 },
    { "id": 10, "name": "보성군", "latitude": 34.7782, "longitude": 127.0927 },
    { "id": 11, "name": "순천시", "latitude": 34.9506, "longitude": 127.4893 },
    { "id": 12, "name": "신안군", "latitude": 34.7360, "longitude": 126.3148 },
    { "id": 13, "name": "여수시", "latitude": 34.7617, "longitude": 127.6625 },
    { "id": 14, "name": "영광군", "latitude": 35.2775, "longitude": 126.5058 },
    { "id": 15, "name": "영암군", "latitude": 34.8009, "longitude": 126.6862 },
    { "id": 16, "name": "완도군", "latitude": 34.3135, "longitude": 126.7328 },
    { "id": 17, "name": "장성군", "latitude": 35.2991, "longitude": 126.7851 },
    { "id": 18, "name": "장흥군", "latitude": 34.6817, "longitude": 126.9168 },
    { "id": 19, "name": "진도군", "latitude": 34.4822, "longitude": 126.2643 },
    { "id": 20, "name": "함평군", "latitude": 35.0656, "longitude": 126.5424 },
    { "id": 21, "name": "해남군", "latitude": 34.5709, "longitude": 126.5886 },
    { "id": 22, "name": "화순군", "latitude": 35.0671, "longitude": 126.9886 }
  ],
  "Jeonbuk-do": [
    { "id": 1, "name": "고창군", "latitude": 35.4311, "longitude": 126.5110 },
    { "id": 2, "name": "군산시", "latitude": 35.9698, "longitude": 126.7217 },
    { "id": 3, "name": "김제시", "latitude": 35.8134, "longitude": 126.8880 },
    { "id": 4, "name": "남원시", "latitude": 35.4103, "longitude": 127.3874 },
    { "id": 5, "name": "무주군", "latitude": 36.0003, "longitude": 127.6614 },
    { "id": 6, "name": "부안군", "latitude": 35.7274, "longitude": 126.7747 },
    { "id": 7, "name": "순창군", "latitude": 35.3744, "longitude": 127.1155 },
    { "id": 8, "name": "완주군", "latitude": 35.8548, "longitude": 127.1760 },
    { "id": 9, "name": "익산시", "latitude": 35.9438, "longitude": 126.9545 },
    { "id": 10, "name": "임실군", "latitude": 35.6112, "longitude": 127.2793 },
    { "id": 11, "name": "장수군", "latitude": 35.6713, "longitude": 127.5205 },
    { "id": 12, "name": "전주시>덕진구", "latitude": 35.8242, "longitude": 127.1484 },
    { "id": 13, "name": "전주시>완산구", "latitude": 35.8015, "longitude": 127.1080 },
    { "id": 14, "name": "정읍시", "latitude": 35.5716, "longitude": 126.8501 },
    { "id": 15, "name": "진안군", "latitude": 35.7894, "longitude": 127.4333 }
  ],
  "Jeju": [
    { "id": 1, "name": "서귀포시", "latitude": 33.2480, "longitude": 126.5618 },
    { "id": 2, "name": "제주시", "latitude": 33.4996, "longitude": 126.5312 }
  ],  
  "South Chungcheong Province": [
    { "id": 1, "name": "계룡시", "latitude": 36.2749, "longitude": 127.2410 },
    { "id": 2, "name": "공주시", "latitude": 36.4553, "longitude": 127.1247 },
    { "id": 3, "name": "금산군", "latitude": 36.1068, "longitude": 127.4972 },
    { "id": 4, "name": "논산시", "latitude": 36.1951, "longitude": 127.0986 },
    { "id": 5, "name": "당진시", "latitude": 36.8936, "longitude": 126.6277 },
    { "id": 6, "name": "보령시", "latitude": 36.3455, "longitude": 126.5795 },
    { "id": 7, "name": "부여군", "latitude": 36.2725, "longitude": 126.9166 },
    { "id": 8, "name": "서산시", "latitude": 36.7787, "longitude": 126.4517 },
    { "id": 9, "name": "서천군", "latitude": 36.0773, "longitude": 126.6989 },
    { "id": 10, "name": "아산시", "latitude": 36.7920, "longitude": 127.0047 },
    { "id": 11, "name": "예산군", "latitude": 36.6786, "longitude": 126.8467 },
    { "id": 12, "name": "천안시>,동남구", "latitude": 36.8065, "longitude": 127.1522 },
    { "id": 13, "name": "천안시>서북구", "latitude": 36.8192, "longitude": 127.1061 },
    { "id": 14, "name": "청양군", "latitude": 36.4578, "longitude": 126.8098 },
    { "id": 15, "name": "태안군", "latitude": 36.7445, "longitude": 126.2887 },
    { "id": 16, "name": "홍성군", "latitude": 36.5973, "longitude": 126.6340 }
  ],
  "North Chungcheong Province": [
    { "id": 1, "name": "괴산군", "latitude": 36.8136, "longitude": 127.7747 },
    { "id": 2, "name": "단양군", "latitude": 36.9962, "longitude": 128.3525 },
    { "id": 3, "name": "보은군", "latitude": 36.4855, "longitude": 127.7368 },
    { "id": 4, "name": "영동군", "latitude": 36.1750, "longitude": 127.7823 },
    { "id": 5, "name": "옥천군", "latitude": 36.3066, "longitude": 127.5746 },
    { "id": 6, "name": "음성군", "latitude": 36.9456, "longitude": 127.6830 },
    { "id": 7, "name": "제천시", "latitude": 37.1334, "longitude": 128.2202 },
    { "id": 8, "name": "증평군", "latitude": 36.7844, "longitude": 127.5933 },
    { "id": 9, "name": "진천군", "latitude": 36.8552, "longitude": 127.4307 },
    { "id": 10, "name": "청원군", "latitude": 36.6228, "longitude": 127.5380 },
    { "id": 11, "name": "청주시>상당구", "latitude": 36.6374, "longitude": 127.4876 },
    { "id": 12, "name": "청주시>서원구", "latitude": 36.6414, "longitude": 127.4413 },
    { "id": 13, "name": "청주시>청원구", "latitude": 36.6798, "longitude": 127.4067 },
    { "id": 14, "name": "청주시>흥덕구", "latitude": 36.6422, "longitude": 127.4395 },
    { "id": 15, "name": "충주시", "latitude": 36.9915, "longitude": 127.9253 }
  ]  
}